DistrictCode,Name,Country,GDP,Area,Latitude,Longitude,Population,Aged 0 to 17,Aged 18 to 24,Aged 25 to 49,Aged 50 to 64,Aged 65+
E06000001,Hartlepool,England,1724,93.89971424302594,54.66937792,-1.259157615,98180,21090,7572,29857,20013,19648
E06000002,Middlesbrough,England,3482,53.861835396514394,54.54200282,-1.222315595,156161,35617,14142,54524,25897,25981
E06000003,Redcar and Cleveland,England,2236,244.9158966979638,54.55160663451148,-1.020662403,139228,27499,9354,38907,29984,33484
E06000004,Stockton-on-Tees,England,5710,203.91992170625718,54.56181173307126,-1.332239467,206800,45079,13794,67206,40414,40307
E06000005,Darlington,England,2946,197.47439156458472,54.548703431012434,-1.55263529,112489,22771,7358,35671,22892,23797
E06000006,Halton,England,4692,79.10849457482422,53.34512286,-2.712194409,131543,27739,9696,42511,26218,25379
E06000007,Warrington,England,8679,180.67561766384026,53.39910193691178,-2.562765122,215391,44799,13641,69186,45080,42685
E06000008,Blackburn with Darwen,England,3575,137.0572406067676,53.69263916376758,-2.467581771,162540,41804,14643,54516,28402,23175
E06000009,Blackpool,England,3221,34.88096956964547,53.81787587,-3.029247484,144191,28923,10330,44092,30861,29985
E06000010,"Kingston upon Hull, City of",England,7066,71.45574083757985,53.76411795344113,-0.334958009,275401,62379,24558,97037,48728,42699
E06000011,East Riding of Yorkshire,England,8417,2406.556689363918,53.874537725139774,-0.492181202,355884,63023,20058,96588,79811,96404
E06000012,North East Lincolnshire,England,3800,191.91461158733154,53.54258671061416,-0.138472795,159911,33522,10621,47958,33220,34590
E06000013,North Lincolnshire,England,5096,846.3269345701186,53.59080536245005,-0.593756549,171336,34675,10910,49691,36794,39266
E06000014,York,England,7026,271.94502559317004,53.95876672,-1.061449187,209301,34758,33101,64178,37046,40218
E06000015,Derby,England,8333,78.02229167422492,52.912540474598316,-1.468346436,274149,62113,25393,94379,47747,44517
E06000016,Leicester,England,10063,73.38038758648607,52.63792606829203,-1.128481465,388348,90763,54443,137873,58646,46623
E06000017,Rutland,England,897,393.7464680854156,52.66075366153217,-0.654633116,41443,8012,2736,11048,8698,10949
E06000018,Nottingham,England,11655,74.60485682,52.96060256145318,-1.176517757,331077,68714,68214,106580,48407,39162
E06000019,"Herefordshire, County of",England,4684,2179.678914337974,52.10367359928362,-2.745111407,191047,34439,11017,52095,41980,51516
E06000020,Telford and Wrekin,England,5224,290.3207510032821,52.730206530248616,-2.488779584,195952,44248,15225,63180,38305,34994
E06000021,Stoke-on-Trent,England,6868,93.41685573489657,53.018047923103076,-2.164539223,270425,62520,23690,90482,47703,46030
E06000022,Bath and North East Somerset,England,5108,351.1634113604521,51.35597157413646,-2.475208607,200028,36601,30812,56690,36841,39084
E06000023,"Bristol, City of",England,16930,109.63250772347449,51.466794508949455,-2.600421184,494399,92705,73982,194570,70856,62286
E06000024,North Somerset,England,5363,374.6769081872065,51.38980961483442,-2.794136539,224578,44360,13874,66672,45722,53950
E06000025,South Gloucestershire,England,13384,496.9466244,51.54191012981427,-2.457493376,306332,62794,26855,102868,56713,57102
E06000026,Plymouth,England,6614,79.81778581843103,50.39201736013102,-4.118261328,272067,52113,30424,88382,49809,51339
E06000027,Torbay,England,2408,62.933906195481605,50.441746850533235,-3.554189031,140126,24811,8155,38152,30774,38234
E06000028,Bournemouth,England,-,46.203183082081544,50.74228355488603,-1.859597008,-,-,-,-,-,-
E06000029,Poole,England,-,64.73894123985224,50.74506347897031,-1.96274025,-,-,-,-,-,-
E06000030,Swindon,England,10414,230.09510768629968,51.57155021201128,-1.743799194,243875,54244,16408,85930,47525,39768
E06000031,Peterborough,England,7385,343.4219615284155,52.608525182674455,-0.253121027,223655,57621,16223,80431,37212,32168
E06000032,Luton,England,7187,43.35902522634753,51.894220922327044,-0.425617603,239090,62280,22704,90530,36383,27193
E06000033,Southend-on-Sea,England,3706,41.75191125742384,51.54773054607868,0.7093281477073689,185256,39611,12089,61637,36110,35809
E06000034,Thurrock,England,5008,163.43919154046367,51.50909988633242,0.3676056350725869,180989,46271,13631,65144,31427,24516
E06000035,Medway,England,6797,193.47848090499323,51.41515019,0.5538465633976277,292655,68774,21687,100668,53457,48069
E06000036,Bracknell Forest,England,5741,109.34445619378982,51.408130769810214,-0.739762686,130806,29372,8546,46933,25073,20882
E06000037,West Berkshire,England,8938,704.1508314322234,51.44958964773157,-1.304493012,165112,35495,10157,50905,34994,33561
E06000038,Reading,England,9464,40.38405413879826,51.452991125833876,-0.983852243,182907,38963,21157,72363,28197,22227
E06000039,Slough,England,8869,32.53413993306284,51.50839202325718,-0.586249371,167359,46686,13987,65023,25315,16348
E06000040,Windsor and Maidenhead,England,8306,198.43301360419215,51.48566959928618,-0.699544,158943,34740,10095,51611,32528,29969
E06000041,Wokingham,England,8403,178.97596182896066,51.42943581,-0.883830719,187200,44412,12014,62230,36025,32519
E06000042,Milton Keynes,England,15581,308.6365415780375,52.08384959138956,-0.733513333,305884,74569,20695,113972,53143,43505
E06000043,Brighton and Hove,England,9690,82.68842976820714,50.84466255079249,-0.134136068,283870,46612,40371,100702,55662,40523
E06000044,Portsmouth,England,6808,40.39221782,50.82071226310833,-1.070075015,214321,43056,26735,76080,36490,31960
E06000045,Southampton,England,8688,49.88874222227602,50.91991564062635,-1.399152211,259424,50941,39642,93615,39671,35555
E06000046,Isle of Wight,England,3185,380.2139159749406,50.67466755740783,-1.297947228,141660,23351,7825,36093,31648,42743
E06000047,County Durham,England,10634,2231.5818187993036,54.695390926398076,-1.839784192,538011,100432,52411,154633,112797,117738
E06000049,Cheshire East,England,16167,1166.34929,53.18041091768821,-2.349355858,421298,83041,24165,129695,89484,94913
E06000050,Cheshire West and Chester,England,11812,916.6605444105782,53.19748870996269,-2.731437248,371652,71565,27050,115811,76943,80283
E06000051,Shropshire,England,7273,3197.318292526024,52.63540469646267,-2.734139876,332455,60153,20402,89733,74371,87796
E06000052,Cornwall,England,13244,3549.761998046176,50.40668097296554,-4.825004874,583289,105786,40417,158641,126839,151606
E06000053,Isles of Scilly,England,70,16.428869663776954,49.93536152217419,-6.314583912,2366,319,248,721,482,596
E06000054,Wiltshire,England,13364,3255.358057,51.29763479471406,-1.944687063,523700,104201,33522,155190,110636,120151
E06000055,Bedford,England,5013,476.38137921782226,52.18921683585811,-0.477096966,194976,44483,13547,67233,36324,33389
E06000056,Central Bedfordshire,England,7286,715.5826531145846,52.006699316712364,-0.436007177,315877,70074,19443,107977,60927,57456
E06000057,Northumberland,England,6276,5026.208651944822,55.23908427480949,-2.068522723,331420,59056,20016,90203,73947,88198
E07000004,Aylesbury Vale,England,-,902.7059118741635,51.89226008230014,-0.885434727,-,-,-,-,-,-
E07000005,Chiltern,England,-,196.38439456350287,51.680523157783426,-0.627779201,-,-,-,-,-,-
E07000006,South Bucks,England,-,141.2691354708897,51.55638363690394,-0.590052591,-,-,-,-,-,-
E07000007,Wycombe,England,-,324.6267370817711,51.649252736429766,-0.815248493,-,-,-,-,-,-
E07000008,Cambridge,England,6761,40.70519690659105,52.199376755931915,0.13292958786349504,149352,25143,28795,57372,20677,17365
E07000009,East Cambridgeshire,England,2335,651.3370322896814,52.34300139072183,0.2946732408789052,92906,19325,5410,29480,19098,19593
E07000010,Fenland,England,2175,546.4791668345871,52.56282450970493,0.060794935966701276,104896,20720,6393,31375,21900,24508
E07000011,Huntingdonshire,England,5454,912.5692248633288,52.373732531654646,-0.220795249,190619,39014,11436,62382,38722,39065
E07000012,South Cambridgeshire,England,5899,901.6969309804083,52.17280801922022,0.081233844,172544,38722,9847,56078,33698,34199
E07000026,Allerdale,England,2136,1257.8507669518638,54.703687819085395,-3.241971029,-,-,-,-,-,-
E07000027,Barrow-in-Furness,England,2067,77.96339221101883,54.13914999455507,-3.20374774,-,-,-,-,-,-
E07000028,Carlisle,England,3293,1039.2042557231325,54.97130051832888,-2.80415153,-,-,-,-,-,-
E07000029,Copeland,England,1723,737.7004555307471,54.420360027091576,-3.373067625,-,-,-,-,-,-
E07000030,Eden,England,1692,2156.5429868623605,54.61292540263585,-2.622117172,-,-,-,-,-,-
E07000031,South Lakeland,England,3051,1552.963558037539,54.31240763,-2.831310391,-,-,-,-,-,-
E07000032,Amber Valley,England,3186,265.4074970873716,53.029262347335255,-1.466605263,130451,24480,7943,38925,29079,30024
E07000033,Bolsover,England,2379,160.35264187906694,53.21569629090862,-1.277239225,83773,16167,5405,26773,18173,17255
E07000034,Chesterfield,England,2791,66.02766647619305,53.25627118734732,-1.401200816,106045,19990,6742,33036,22591,23686
E07000035,Derbyshire Dales,England,1885,795.4329234,53.128468784130774,-1.693639662,71757,11705,3696,17211,18114,21031
E07000036,Erewash,England,2152,109.6419896612574,52.93550705529845,-1.346738361,114253,21733,7746,36257,24263,24254
E07000037,High Peak,England,1793,540.2264343702676,53.37307343185213,-1.873902618,91959,17137,5278,26724,21524,21296
E07000038,North East Derbyshire,England,1820,275.6654577923649,53.22592245117327,-1.448310251,106646,19951,6097,31169,22994,26435
E07000039,South Derbyshire,England,3256,338.0916105663888,52.831044853039224,-1.559531472,117493,24992,7300,38724,24438,22039
E07000040,East Devon,England,3288,814.5010705988352,50.76548573918589,-3.222684962,158239,27718,8720,40958,33090,47753
E07000041,Exeter,England,6210,47.045813844084144,50.72230796278684,-3.510851024,138399,22558,27897,43405,21807,22732
E07000042,Mid Devon,England,1682,912.8258288308001,50.87623449046245,-3.556166984,84993,16693,5067,23398,18687,21148
E07000043,North Devon,England,2600,1085.9838908421173,51.069108110709706,-3.910921065,101222,18776,6094,27248,22303,26801
E07000044,South Hams,England,2351,886.5633843802354,50.375105204968804,-3.823276146,92148,16246,5007,23412,20923,26560
E07000045,Teignbridge,England,2957,673.8789204022366,50.606601950479224,-3.658129297,138548,24249,7504,37348,30890,38557
E07000046,Torridge,England,1194,985.3326028254843,50.886014573935064,-4.250006625,69841,11982,3739,17110,16320,20690
E07000047,West Devon,England,984,1161.0439481061837,50.656897942252485,-4.045623609,58923,9942,3282,14164,14048,17487
E07000048,Christchurch,England,-,50.41144045200364,50.76246303975363,-1.789155186,-,-,-,-,-,-
E07000049,East Dorset,England,-,354.4278069857091,50.86372458067249,-1.961523519,-,-,-,-,-,-
E07000050,North Dorset,England,-,609.2664487716276,50.912557456059275,-2.246365282,-,-,-,-,-,-
E07000051,Purbeck,England,-,404.3921331880644,50.681163036690656,-2.137980207,-,-,-,-,-,-
E07000052,West Dorset,England,-,1081.583335547441,50.78526433180935,-2.578406692,-,-,-,-,-,-
E07000053,Weymouth and Portland,England,-,41.82403468366503,50.61026745087325,-2.455081702,-,-,-,-,-,-
E07000061,Eastbourne,England,2289,44.15418781527798,50.77676548693464,0.26601974980709475,104259,19716,7352,30613,20653,25925
E07000062,Hastings,England,1898,29.72581545891491,50.869922474449794,0.5704610204506692,91219,18037,5851,28469,19643,19219
E07000063,Lewes,England,2303,292.0711984442233,50.88281210329527,0.004615924,102363,18933,6145,27576,22048,27661
E07000064,Rother,England,1656,511.7624900789194,50.95221317430317,0.5373223453368272,96133,16271,5177,22275,21144,31266
E07000065,Wealden,England,3227,834.9676527744383,50.96780224753435,0.19843905835785203,166908,31471,9379,43614,37100,45344
E07000066,Basildon,England,6547,110.01650920621942,51.59029997180553,0.46612208622384194,193632,45430,13380,66176,35606,33040
E07000067,Braintree,England,4057,611.6950141396968,51.94193933862549,0.5898759517012738,164304,33781,10402,52301,33589,34231
E07000068,Brentwood,England,3911,153.14071444750672,51.63864067,0.3107604403435133,79326,16813,4707,26291,15558,15957
E07000069,Castle Point,England,1311,45.03502037279081,51.545471185545395,0.5813428825058953,90581,17580,5817,25523,18347,23314
E07000070,Chelmsford,England,5770,342.2540235703466,51.72567582335598,0.48054683414890853,188803,40098,13107,63327,35937,36334
E07000071,Colchester,England,5102,333.1374471557872,51.87571847375454,0.8571935057393864,200222,43110,17350,67486,36231,36045
E07000072,Epping Forest,England,4655,338.9678727489068,51.70888441856397,0.14874816358284135,137451,28748,9408,43758,27887,27650
E07000073,Harlow,England,2564,30.53020276,51.76834518298533,0.10851727841803943,98235,24478,6776,36271,16603,14107
E07000074,Maldon,England,1351,358.7523243,51.71034542628437,0.7689467989716594,69131,12584,4216,18785,15622,17924
E07000075,Rochford,England,1560,169.37689819369808,51.59518611667002,0.7448913924114764,89815,18052,5906,26365,18742,20750
E07000076,Tendring,England,2425,337.7142428655533,51.87034966659562,1.1103807764896871,156759,27958,9136,40232,33253,46180
E07000077,Uttlesford,England,2756,641.1300411039792,51.934694087160516,0.2797139747305322,95106,20565,5777,27929,20506,20329
E07000078,Cheltenham,England,3855,46.57245702826787,51.89701083381082,-2.074007278,121739,24331,10253,40212,22819,24124
E07000079,Cotswold,England,4252,1164.5477478955838,51.81668107,-1.892413947,91661,16484,5354,23645,21004,25174
E07000080,Forest of Dean,England,2133,526.3052934115706,51.836790336452886,-2.487473061,89753,16526,5902,24095,20261,22969
E07000081,Gloucester,England,3667,40.55391854561397,51.849331775120156,-2.240005647,138598,29891,11987,47578,25751,23391
E07000082,Stroud,England,3268,460.7061409148754,51.728524536356495,-2.295207616,125680,24434,7215,36134,27901,29996
E07000083,Tewkesbury,England,3522,414.4047598150424,51.945734958397054,-2.087041399,101949,21497,5736,32098,20236,22382
E07000084,Basingstoke and Deane,England,7855,633.7960261905398,51.27345677719807,-1.200984703,193110,40949,11897,67343,38291,34630
E07000085,East Hampshire,England,3197,514.4322591274257,51.07465877630082,-0.95507222,129975,25615,7385,36784,28498,31693
E07000086,Eastleigh,England,5016,79.78745175178992,50.93774728,-1.32645915,142933,30405,8947,47334,27642,28605
E07000087,Fareham,England,3499,74.26827139255839,50.85310440594781,-1.222363637,115428,21045,7300,32405,24813,29865
E07000088,Gosport,England,1318,25.328372884182812,50.80512740043015,-1.161002479,82921,16470,5935,24666,17253,18597
E07000089,Hart,England,3610,215.26733003989509,51.28483784930865,-0.897470313,103162,21725,6695,32076,21405,21261
E07000090,Havant,England,3190,55.34139704235454,50.84849175,-0.990595131,126985,24639,8059,35985,26538,31764
E07000091,New Forest,England,5374,753.0473707316156,50.859915027892605,-1.630916952,176116,29968,9760,43275,39087,54026
E07000092,Rushmoor,England,5378,39.05094932564766,51.27347534679876,-0.767475977,105751,22347,7829,40375,19076,16124
E07000093,Test Valley,England,3974,627.601988,51.128639914621495,-1.510642199,135201,27556,7791,42222,27937,29695
E07000094,Winchester,England,6096,660.9634826562988,51.02829245145476,-1.221224853,135632,28011,12868,39574,26667,28512
E07000095,Broxbourne,England,2745,51.45476658802456,51.72513299264127,-0.047366736,101900,23012,7235,34497,19455,17701
E07000096,Dacorum,England,5115,212.45327845230025,51.778187869220126,-0.540906068,161420,36687,9988,55264,30858,28623
E07000098,Hertsmere,England,4776,101.15378702134386,51.67727821457837,-0.281105375,110212,24629,7425,36403,21303,20452
E07000099,North Hertfordshire,England,4239,375.36862098165176,51.95908271135698,-0.192549977,137201,29084,7909,45719,27036,27453
E07000102,Three Rivers,England,4869,88.81174168380542,51.660975211729195,-0.460574885,95807,21229,6448,31062,19324,17744
E07000103,Watford,England,5775,21.395419699885448,51.66811753931689,-0.403366609,107171,25297,7367,42898,17763,13846
E07000105,Ashford,England,3710,580.5837201932021,51.12532381347078,0.8114132734821813,140936,30900,8827,45210,28198,27801
E07000106,Canterbury,England,3969,308.8745606680643,51.28091893018465,1.1048269899632774,162100,30404,20416,44939,30147,36194
E07000107,Dartford,England,4452,72.76521419064844,51.42983403322811,0.252321876,125011,31711,7760,47784,21001,16755
E07000108,Dover,England,2970,315.06056143655474,51.211510652785144,1.2878517809190217,119768,23601,7177,34188,25066,29736
E07000109,Gravesham,England,2167,99.05704491361658,51.402366887238244,0.39506871134752247,110671,26654,7877,37139,20281,18720
E07000110,Maidstone,England,5155,393.3202865556496,51.234999983123714,0.58059886,187767,41519,11647,63028,35961,35612
E07000111,Sevenoaks,England,4639,370.3357248588765,51.27549454341143,0.17209033444926175,122748,27344,7086,35930,25196,27192
E07000112,Shepway,England,2619,356.71934903457947,51.05570899889186,0.9942642678584083,-,-,-,-,-,-
E07000113,Swale,England,3473,374.4111299963512,51.33567400848348,0.8159285078382639,158379,35029,10554,51005,31384,30407
E07000114,Thanet,England,2673,103.37411377520772,51.354333685368005,1.3377005644375608,142691,28876,8784,42185,28804,34042
E07000115,Tonbridge and Malling,England,5299,240.12148767419555,51.27343064232604,0.35755790700689394,136853,30805,8229,43539,27702,26578
E07000116,Tunbridge Wells,England,3989,331.30641529611836,51.11438015391586,0.43067602591833926,119694,27417,6330,37339,24584,24024
E07000117,Burnley,England,2296,110.68986798982455,53.778931174767166,-2.22195228,99233,23040,7850,32218,18253,17872
E07000118,Chorley,England,2538,202.7522424634832,53.66147895192191,-2.647762455,120839,24021,7594,38236,25711,25277
E07000119,Fylde,England,3092,165.67232961537172,53.78786905001297,-2.913720047,85447,14189,4540,22098,19803,24817
E07000120,Hyndburn,England,1699,73.00408156481836,53.75864941784307,-2.389795665,86058,19443,6944,27710,16473,15488
E07000121,Lancaster,England,3365,575.7690481,54.070957821391076,-2.691861404,145006,26480,20346,39795,27944,30441
E07000122,Pendle,England,2157,169.37382148227033,53.86549784429647,-2.184918623,99777,23996,7864,31429,18179,18309
E07000123,Preston,England,4981,142.29498392425663,53.812079459669654,-2.69744944,162864,36229,18689,57183,27541,23222
E07000124,Ribble Valley,England,1922,584.4515068060265,53.90728127678368,-2.444704926,65794,12287,3862,17855,15296,16494
E07000125,Rossendale,England,1252,138.01958125558812,53.693819546308504,-2.267308212,73045,15561,4876,23093,15304,14211
E07000126,South Ribble,England,4170,112.98422850115537,53.72797531172062,-2.708718379,116113,22710,7583,35721,24527,25572
E07000127,West Lancashire,England,2959,346.7538593,53.599289811641114,-2.870045719,121995,22619,13185,32836,25909,27446
E07000128,Wyre,England,2158,282.4899087304579,53.897087406787875,-2.831602492,118743,20817,7305,30418,26512,33691
E07000129,Blaby,England,4090,130.4806666522786,52.57152836515207,-1.221954948,108165,22288,6805,35461,21351,22260
E07000130,Charnwood,England,4178,279.02083469424946,52.737020771511034,-1.146159695,188385,35778,24678,56367,34979,36583
E07000131,Harborough,England,2514,592.7246286528831,52.53932964965996,-1.007897557,104713,20852,6252,31253,22632,23724
E07000132,Hinckley and Bosworth,England,2763,297.3572342,52.616502215226284,-1.391025766,116682,22700,6897,35968,24496,26621
E07000133,Melton,England,1357,481.3562992966116,52.79645492167516,-0.856150199,54052,10396,3185,14942,12477,13052
E07000134,North West Leicestershire,England,4264,279.3277755924646,52.75315847811077,-1.405005553,111881,22216,7824,35739,23599,22503
E07000135,Oadby and Wigston,England,994,23.517256115756854,52.58714689037487,-1.093414851,61695,13209,5728,18909,11243,12606
E07000136,Boston,England,1703,364.8515173299728,52.973283619786386,-0.037665261,71080,15554,4470,21647,14342,15067
E07000137,East Lindsey,England,2722,1764.99264,53.25129111878911,0.022544969,145183,23236,8084,33504,34623,45736
E07000138,Lincoln,England,3170,35.64522905100681,53.22473176,-0.554918998,105114,19079,18116,35314,16730,15875
E07000139,North Kesteven,England,2835,922.4564377966601,53.08118571651771,-0.446151295,122468,23077,7681,35567,26866,29277
E07000140,South Holland,England,2485,750.7878820815525,52.78853184598036,-0.048707211,99298,19246,5793,28900,21330,24029
E07000141,South Kesteven,England,3332,942.6065768587622,52.854460272071115,-0.518263097,147151,29182,8283,42653,31928,35105
E07000142,West Lindsey,England,1938,1155.6708958050147,53.392838592228536,-0.476486548,99208,18580,5657,27196,22256,25519
E07000143,Breckland,England,2953,1305.1175451167742,52.588142046067624,0.8372909050880408,146620,27237,8804,41657,31389,37533
E07000144,Broadland,England,3993,552.3788507531915,52.70128476725923,1.3098617025771853,138157,25083,7890,39352,29875,35957
E07000145,Great Yarmouth,England,2101,174.1951295473805,52.64227197745825,1.6597783029228197,100529,19503,6572,28186,21326,24942
E07000146,King's Lynn and West Norfolk,England,3601,1438.305407431748,52.71829266176192,0.47543843450567325,156206,28915,9194,43198,33417,41482
E07000147,North Norfolk,England,1957,964.9411920913006,52.84748146,1.1743198038872662,103217,15458,5143,23141,23395,36080
E07000148,Norwich,England,4642,39.01200780442356,52.63306732923942,1.2769640320251667,147182,26373,22668,53412,22756,21973
E07000149,South Norfolk,England,3297,907.6449234544815,52.51455189578949,1.2755099428372532,148448,29261,8151,43225,31039,36772
E07000150,Corby,England,-,80.27822553610369,52.49907905,-0.695919813,-,-,-,-,-,-
E07000151,Daventry,England,-,665.6468499571836,52.31605094742079,-1.048043196,-,-,-,-,-,-
E07000152,East Northamptonshire,England,-,509.71588017143733,52.45769934235294,-0.523431666,-,-,-,-,-,-
E07000153,Kettering,England,-,233.49996946461263,52.42616989838143,-0.765498388,-,-,-,-,-,-
E07000154,Northampton,England,-,80.73191846684124,52.241254415134435,-0.886898683,-,-,-,-,-,-
E07000155,South Northamptonshire,England,-,634.0624946696684,52.12263093403808,-1.042660493,-,-,-,-,-,-
E07000156,Wellingborough,England,-,163.09937862822724,52.287800757347824,-0.712344284,-,-,-,-,-,-
E07000163,Craven,England,1776,1178.9286561126169,54.07988342723146,-2.174587791,-,-,-,-,-,-
E07000164,Hambleton,England,2789,1311.172483180638,54.28706826285498,-1.319241386,-,-,-,-,-,-
E07000165,Harrogate,England,5098,1309.0190641550437,54.067152190730035,-1.595814678,-,-,-,-,-,-
E07000166,Richmondshire,England,1089,1318.7183675128454,54.36151300681325,-1.934048804,-,-,-,-,-,-
E07000167,Ryedale,England,1576,1506.6267810393615,54.21059352263606,-0.852294959,-,-,-,-,-,-
E07000168,Scarborough,England,2474,816.6133914016566,54.366516222561785,-0.637336948,-,-,-,-,-,-
E07000169,Selby,England,2704,599.2902128758302,53.787170482318594,-1.135179095,-,-,-,-,-,-
E07000170,Ashfield,England,3263,109.5497669111779,53.09228242640968,-1.25915754,129572,26891,8708,41187,26800,25986
E07000171,Bassetlaw,England,2733,637.8522643,53.332829283265326,-0.959349093,124937,24712,7590,37747,26941,27947
E07000172,Broxtowe,England,2535,80.13242768322208,52.97647048200647,-1.262112391,114565,21585,9947,35895,22315,24823
E07000173,Gedling,England,1933,119.96470151311017,53.02839901683333,-1.11935502,120179,23850,7186,38126,24911,26106
E07000174,Mansfield,England,2066,76.66730229371183,53.170721357508114,-1.172775959,113138,23895,7077,36731,22989,22446
E07000175,Newark and Sherwood,England,3024,651.3611199370927,53.12393725455099,-0.919847747,127886,24629,8247,38168,27379,29463
E07000176,Rushcliffe,England,3305,409.2349206936663,52.90086471137169,-1.037517688,126736,26010,8706,38543,25606,27871
E07000177,Cherwell,England,5573,588.7283194542256,51.95890680786042,-1.275855039,170426,36720,10689,59798,33010,30209
E07000178,Oxford,England,7322,45.62194669754245,51.75460815078325,-1.24097153,166034,30292,33093,58470,24169,20010
E07000179,South Oxfordshire,England,4703,678.4385757516105,51.63386768470185,-1.071480222,156470,32332,9107,49375,32632,33024
E07000180,Vale of White Horse,England,4727,578.6878464088105,51.63422818976113,-1.441581831,149347,33027,9048,49126,28365,29781
E07000181,West Oxfordshire,England,3065,714.4246544457349,51.83766361536415,-1.506859309,120941,24276,7544,37507,24639,26975
E07000187,Mendip,England,2694,739.3932166861919,51.20288922371181,-2.544546398,-,-,-,-,-,-
E07000188,Sedgemoor,England,3127,564.3656662265947,51.17990723596346,-2.946495032,-,-,-,-,-,-
E07000189,South Somerset,England,4365,959.0139422039564,50.98810679278749,-2.709555703,-,-,-,-,-,-
E07000190,Taunton Deane,England,-,462.31791110135333,51.01050040833428,-3.157304027,-,-,-,-,-,-
E07000191,West Somerset,England,-,726.9503477,51.131795457213315,-3.496802419,-,-,-,-,-,-
E07000192,Cannock Chase,England,2468,78.89248886600086,52.71240685099618,-1.980231711,104088,20704,6926,33682,21950,20826
E07000193,East Staffordshire,England,4103,389.98801996583927,52.86334020676278,-1.812266826,129659,28162,8764,41632,26107,24994
E07000194,Lichfield,England,2738,331.27005847975835,52.6882076,-1.804980729,111932,21127,7100,33245,23573,26887
E07000195,Newcastle-under-Lyme,England,2644,210.96277057748716,52.99318087487387,-2.318748634,127727,23378,13671,37432,25514,27732
E07000196,South Staffordshire,England,2361,407.32732780372874,52.625577445068274,-2.176672325,114423,20292,6865,32566,25133,29567
E07000197,Stafford,England,3671,598.1866182,52.848188525266536,-2.176485291,141556,26965,8241,43080,30206,33064
E07000198,Staffordshire Moorlands,England,1935,575.8249328581087,53.07939054700821,-1.981260456,96651,17024,5720,25437,22311,26159
E07000199,Tamworth,England,1941,30.856867397305763,52.626424751852205,-1.677859221,81117,17152,5438,26867,15978,15682
E07000200,Babergh,England,2122,595.2654871440416,52.052897220667205,0.9079204964339553,97033,17706,5675,26091,21238,26323
E07000201,Forest Heath,England,-,377.75995506291594,52.35480859,0.5315824987574499,-,-,-,-,-,-
E07000202,Ipswich,England,4738,39.42904395363539,52.05636143816641,1.1597569670513974,140274,32099,10387,48695,25111,23982
E07000203,Mid Suffolk,England,2575,871.0334351768239,52.246875973311795,1.0925818591023684,110775,20012,6711,31389,24315,28348
E07000204,St Edmundsbury,England,-,656.9601512574394,52.23349476381657,0.6744386883516211,-,-,-,-,-,-
E07000205,Suffolk Coastal,England,-,891.4695099463128,52.165250253686494,1.4115043599217296,-,-,-,-,-,-
E07000206,Waveney,England,-,369.79568352043896,52.41875048287725,1.5827568425418093,-,-,-,-,-,-
E07000207,Elmbridge,England,6912,96.30520115,51.35714549782705,-0.392171141,141926,33784,7578,45030,29421,26113
E07000208,Epsom and Ewell,England,2051,34.11871980816079,51.339161718159644,-0.261437165,83288,19111,5763,27044,16284,15086
E07000209,Guildford,England,5900,270.9827711774601,51.24779379426272,-0.561658165,151359,29207,19557,48546,27997,26052
E07000210,Mole Valley,England,4660,258.30452209901654,51.212315690539796,-0.325118833,88709,17527,5011,24531,19851,21789
E07000211,Reigate and Banstead,England,6389,129.12817734239297,51.25323086658892,-0.191873278,159134,35732,9473,54865,30260,28804
E07000212,Runnymede,England,6735,78.05360132013138,51.3937861,-0.541357036,92118,18284,12117,28799,17107,15811
E07000213,Spelthorne,England,3832,51.167087908807176,51.42480295,-0.468013653,107074,23157,7068,37208,20457,19184
E07000214,Surrey Heath,England,3951,95.07251531,51.34293096770503,-0.670536659,94492,19636,5763,30300,19554,19239
E07000215,Tandridge,England,2332,248.19589694883325,51.227077924405954,-0.043399129,90586,19681,5574,27044,18911,19376
E07000216,Waverley,England,3747,345.1856668369439,51.14979990363934,-0.632716463,134284,29738,8377,38743,27718,29708
E07000217,Woking,England,3740,63.567750123085496,51.31389137119141,-0.560720971,105679,23482,6588,37859,19689,18061
E07000218,North Warwickshire,England,3384,284.2712795317744,52.54754918370021,-1.628027545,67117,13078,4278,20045,14735,14981
E07000219,Nuneaton and Bedworth,England,2662,78.97492469798331,52.501122831689834,-1.475876341,141565,31099,9523,47013,27089,26841
E07000220,Rugby,England,3408,353.51665709356877,52.384435253677566,-1.328355649,122378,27608,7607,42219,23194,21750
E07000221,Stratford-on-Avon,England,5744,977.8851388868954,52.17879793072784,-1.622954456,146258,27116,7881,42166,31998,37097
E07000222,Warwick,England,7307,282.8822000764582,52.31000239880441,-1.584693818,154889,30491,15673,50821,28465,29439
E07000223,Adur,England,1401,41.81204191442297,50.84505489,-0.299440365,64889,13111,3750,18914,13518,15596
E07000224,Arun,England,2956,220.73915525667846,50.84162957591795,-0.567459001,170064,29152,10302,45816,35406,49388
E07000225,Chichester,England,3967,786.2443675304306,50.941993269074096,-0.737398593,128934,22714,9853,33775,26865,35727
E07000226,Crawley,England,6880,44.96947388025374,51.12548082576494,-0.182014731,124008,29481,8979,47385,21426,16737
E07000227,Horsham,England,4006,530.2663049216359,50.993936213815935,-0.366174849,151521,30903,8279,44423,32195,35721
E07000228,Mid Sussex,England,4036,333.99639865353646,51.02092928129158,-0.126936912,161755,35421,9056,51329,32333,33616
E07000229,Worthing,England,4389,32.46691853314934,50.83004637,-0.39632998,113866,21161,6950,36016,23626,26113
E07000234,Bromsgrove,England,3300,217.02126481311998,52.361757485337336,-2.016006466,101685,20893,6091,29624,21415,23662
E07000235,Malvern Hills,England,2005,577.0792549417979,52.182954786995836,-2.345027299,83227,14771,4757,21042,18837,23820
E07000236,Redditch,England,2509,54.26374139460983,52.28228214731653,-1.951838777,87847,18891,5860,29779,16448,16869
E07000237,Worcester,England,3448,33.29568171644149,52.196687329831335,-2.211317186,106671,20796,10271,35802,20390,19412
E07000238,Wychavon,England,3562,663.4433513659783,52.16430382,-2.051074468,138017,25503,7955,38781,30417,35361
E07000239,Wyre Forest,England,1873,195.4165214063066,52.37957368152999,-2.274627768,103913,19265,6456,29596,22169,26427
E07000240,St Albans,England,5207,161.22465712282423,51.77209466082588,-0.34248943,151012,36381,8535,48981,30564,26551
E07000241,Welwyn Hatfield,England,5651,129.4922738,51.766913868735585,-0.194126584,122819,25901,12660,42607,21756,19895
E07000242,East Hertfordshire,England,4822,475.71217210971906,51.86509694639306,-0.008224266,156875,34369,9347,51087,32406,29666
E07000243,Stevenage,England,3066,25.952354390067455,51.90434829403111,-0.189340959,91774,20891,6465,33019,17020,14379
E08000001,Bolton,England,6793,139.79898295514977,53.578634004421225,-2.466968017,310085,75599,24888,101040,56202,52356
E08000002,Bury,England,4150,99.50036133814172,53.58783104,-2.312534044,198921,44768,14449,65163,38041,36500
E08000003,Manchester,England,26477,115.55779543036735,53.45153919420718,-2.232476792,589670,131831,99367,223355,80023,55094
E08000004,Oldham,England,4832,142.34903610807646,53.55187670496467,-2.050630428,251560,64069,21468,82278,44183,39562
E08000005,Rochdale,England,4469,158.11600839328509,53.61657624,-2.157813586,235561,58087,18355,78168,42381,38570
E08000006,Salford,England,8853,97.17985366475953,53.48951628100651,-2.3700978,294348,63622,34185,116910,42687,36944
E08000007,Stockport,England,7802,126.06894542422162,53.39396738881701,-2.128123793,303929,64910,18381,100909,58494,61235
E08000008,Tameside,England,4244,103.16302693052924,53.47747048699929,-2.062820672,239643,52901,17181,80715,46677,42169
E08000009,Trafford,England,10231,106.00860941237741,53.41899096567365,-2.355330084,241025,56737,16025,80298,45450,42515
E08000010,Wigan,England,6251,188.17439911954284,53.52415539021945,-2.589526001,344922,71697,23860,113390,69488,66487
E08000011,Knowsley,England,4243,86.53517203241574,53.425163393762276,-2.834092371,162565,36039,11729,54598,32039,28160
E08000012,Liverpool,England,15194,111.82904162686359,53.40393544108167,-2.916695964,508961,97802,77430,171451,84246,78032
E08000013,St. Helens,England,3376,136.4108433525604,53.4594874,-2.723604363,188861,37608,13236,60600,38596,38821
E08000014,Sefton,England,5066,153.1020686085433,53.54977337,-3.003972749,286281,54760,18418,84775,60465,67863
E08000015,Wirral,England,6163,157.06156795478995,53.36328824737006,-3.069735334,328873,66223,21912,98814,67810,74114
E08000016,Barnsley,England,4800,329.12929401136665,53.53582542654172,-1.532527422,251770,51799,16428,80581,52424,50538
E08000017,Doncaster,England,6971,568.0181907354334,53.54427833049489,-1.095761476,319765,68271,21292,104006,63505,62691
E08000018,Rotherham,England,5794,286.49132528080685,53.40864567610203,-1.286238563,276595,59521,19769,88025,54923,54357
E08000019,Sheffield,England,14805,367.89149627675005,53.40443573419279,-1.550487114,582493,116279,74925,193701,99827,97761
E08000021,Newcastle upon Tyne,England,10471,113.43304866289704,55.00826930868544,-1.658261961,320605,61206,56988,105956,49051,47404
E08000022,North Tyneside,England,5268,82.35866334,55.02836483,-1.519255722,215025,42263,13821,70235,43184,45522
E08000023,South Tyneside,England,2397,64.45430662379775,54.96275409231755,-1.444442579,151393,30513,10549,46819,30973,32539
E08000024,Sunderland,England,8059,137.39260227725154,54.879949013905296,-1.452714214,288606,56770,21730,93006,57255,59845
E08000025,Birmingham,England,30832,267.75528740493155,52.48860046448871,-1.874689093,1183618,292859,144651,406165,185537,154406
E08000026,Coventry,England,11000,98.62408398521099,52.41686588446185,-1.519786623,369026,83561,46998,129566,57601,51300
E08000027,Dudley,England,6362,97.94089466756476,52.48286218710391,-2.108745169,331930,71124,24104,104933,64694,67075
E08000028,Sandwell,England,7630,85.59566348957145,52.51543811131056,-2.008963247,353860,88593,30827,121353,61846,51241
E08000029,Solihull,England,11198,178.27543843022147,52.413117440411796,-1.727065168,221242,49229,14647,66576,43765,47025
E08000030,Walsall,England,5579,103.99729010541694,52.59925938312226,-1.966324774,295678,71799,23737,96412,53142,50588
E08000031,Wolverhampton,England,5912,69.44060462311982,52.58919711380403,-2.120997653,281251,68405,22860,95608,49270,45108
E08000032,Bradford,England,11557,366.3923659960611,53.844705549477766,-1.854718911,563605,142483,48844,187917,96864,87497
E08000033,Calderdale,England,5437,363.9461747837663,53.72118503,-1.973459604,210929,45130,14761,65635,44113,41290
E08000034,Kirklees,England,9119,408.51484648046755,53.62737989546103,-1.763228944,447847,99822,37091,144252,85706,80976
E08000035,Leeds,England,30089,551.8118530114364,53.82575837795721,-1.506016864,845189,176239,105568,290976,140561,131845
E08000036,Wakefield,England,9260,338.5758152651525,53.660655749842455,-1.411801483,367666,77481,24076,121954,73934,70221
E08000037,Gateshead,England,5058,142.34712860666664,54.934967840697894,-1.683282487,202760,40414,15174,66067,39784,41321
E09000001,City of London,England,70788,2.899622293,51.51484635006207,-0.092170332,15111,847,2363,8546,1956,1399
E09000002,Barking and Dagenham,England,4244,36.10815460939179,51.54527579618733,0.13350893317747348,232747,66465,21395,89387,35488,20012
E09000003,Barnet,England,10812,86.79965690868438,51.61602799104802,-0.210008061,405050,93851,31091,148602,70848,60658
E09000004,Bexley,England,7404,60.597449065593885,51.45882136,0.14034621986209692,256434,58724,19455,88207,47597,42451
E09000005,Brent,England,10345,43.223362339214525,51.558562653663834,-0.267833803,352976,75001,38415,136788,59825,42947
E09000006,Bromley,England,9614,150.12530413735533,51.371988202876864,0.051552258,335319,73457,20337,115540,66001,59984
E09000007,Camden,England,36525,21.807902869533144,51.54638170765395,-0.157421633,216943,35276,34082,85788,35485,26312
E09000008,Croydon,England,11313,86.53566806518377,51.355343340837635,-0.087156486,409342,93945,30626,153782,74255,56734
E09000009,Ealing,England,10767,55.53862019845003,51.52249091288701,-0.3309955,385985,82360,37311,150993,66676,48645
E09000010,Enfield,England,9421,82.17133020251147,51.65100727571223,-0.08725199,327434,80331,26981,110637,61448,48037
E09000011,Greenwich,England,6902,47.305862693096046,51.47281756,0.056288798087880024,299528,65325,26321,126505,49143,32234
E09000012,Hackney,England,9700,19.056242571242517,51.55224555819412,-0.063379534,266758,54191,25784,125099,39084,22600
E09000013,Hammersmith and Fulham,England,12449,16.38350029,51.49597701,-0.221318739,188687,31955,21663,82955,31615,20499
E09000014,Haringey,England,5173,29.60390973324701,51.590372407802214,-0.107439662,263850,53648,22560,109946,47945,29751
E09000015,Harrow,England,6434,50.44349105301927,51.59772857379861,-0.341271133,270724,60452,21549,100787,45349,42587
E09000016,Havering,England,6922,112.34185227234481,51.56439205998066,0.22109299218255246,276274,63777,19887,96270,48631,47709
E09000017,Hillingdon,England,17119,115.72596936390097,51.541495757219806,-0.445662163,329185,75524,31360,124246,54857,43198
E09000018,Hounslow,England,19464,55.972287683913244,51.468390206371105,-0.367094059,299424,67554,25220,118200,51826,36624
E09000019,Islington,England,20528,14.832808726606322,51.54849461495776,-0.110292591,223024,35624,27914,103766,34090,21630
E09000020,Kensington and Chelsea,England,10768,12.135097838653216,51.50161860947079,-0.192767265,144518,22555,14599,54979,30071,22314
E09000021,Kingston upon Thames,England,6083,37.275509826959386,51.38790945302527,-0.286914551,172692,37121,15817,62587,31241,25926
E09000022,Lambeth,England,14038,26.79794166673955,51.45310209354745,-0.118265743,316920,51454,32495,150297,52660,30014
E09000023,Lewisham,England,4844,35.18884378372242,51.448101204325816,-0.020235294,301255,62052,25401,129514,53181,31107
E09000024,Merton,England,6733,37.628570822052346,51.409957259138686,-0.197239819,218539,47199,15421,88127,38902,28890
E09000025,Newham,England,7954,36.20059245486017,51.528353927590274,0.036380559,374523,84408,45443,164972,51492,28208
E09000026,Redbridge,England,6091,56.412461716613564,51.585677359825674,0.075865401,321231,78171,29129,122062,51505,40364
E09000027,Richmond upon Thames,England,8636,57.36926765607324,51.4421777,-0.312988066,196678,44038,12000,65807,41447,33386
E09000028,Southwark,England,22582,28.84535179198673,51.473135793777686,-0.074608414,314786,55626,36052,142589,51837,28682
E09000029,Sutton,England,5167,43.83589846369725,51.36209691,-0.177577608,214525,50854,13674,76970,40137,32890
E09000030,Tower Hamlets,England,35937,19.766790096909702,51.517193493847316,-0.035605965,331886,63073,46385,165406,37463,19559
E09000031,Waltham Forest,England,5362,38.82200993818363,51.59404232351642,-0.012637016,279737,62664,21577,119298,46131,30067
E09000032,Wandsworth,England,9084,34.269845333377106,51.451363060684066,-0.18643466,337655,58730,29146,166678,49550,33551
E09000033,Westminster,England,74449,21.46075428408704,51.51388565711202,-0.161283139,209996,29834,25682,89585,38367,26528
S12000005,Clackmannanshire,Scotland,1242,158.9885695700262,56.15209337936731,-3.740335738,-,-,-,-,-,-
S12000006,Dumfries and Galloway,Scotland,4188,6437.637001301803,55.07711702820089,-3.960622573,-,-,-,-,-,-
S12000008,East Ayrshire,Scotland,2318,1270.3798582273355,55.48535602049036,-4.314350573,-,-,-,-,-,-
S12000010,East Lothian,Scotland,2209,679.2541077076228,55.93984721607855,-2.720433629,-,-,-,-,-,-
S12000011,East Renfrewshire,Scotland,1429,174.25694179573316,55.75315391726281,-4.359570962,-,-,-,-,-,-
S12000013,Eilean Siar,Scotland,644,3098.2675970293494,57.92616488262283,-6.851845611,-,-,-,-,-,-
S12000014,Falkirk,Scotland,4591,297.3207236806701,55.995189029252074,-3.7979087,-,-,-,-,-,-
S12000015,Fife,Scotland,-,1325.1788452579744,56.22848657472161,-3.126745369,-,-,-,-,-,-
S12000017,Highland,Scotland,7208,26161.35807190752,57.57869644815352,-4.759299689,-,-,-,-,-,-
S12000018,Inverclyde,Scotland,1509,161.93531212053372,55.901188245927415,-4.743649671,-,-,-,-,-,-
S12000019,Midlothian,Scotland,1954,355.27435977223865,55.83222126861354,-3.110377956,-,-,-,-,-,-
S12000020,Moray,Scotland,2447,2237.749753721237,57.474289314209415,-3.264918341,-,-,-,-,-,-
S12000021,North Ayrshire,Scotland,2709,885.4435201390036,55.65105666913038,-4.979604213,-,-,-,-,-,-
S12000023,Orkney Islands,Scotland,626,1013.9665886420277,59.02470833538507,-3.047578882,-,-,-,-,-,-
S12000024,Perth and Kinross,Scotland,-,5383.629567800402,56.56688785938198,-3.824154178,-,-,-,-,-,-
S12000026,Scottish Borders,Scotland,2807,4739.157589579852,55.576245807816576,-2.788159153,-,-,-,-,-,-
S12000027,Shetland Islands,Scotland,823,1467.2578340604684,60.38034240828174,-1.255259309,-,-,-,-,-,-
S12000028,South Ayrshire,Scotland,2918,1224.0594055344784,55.267704742331844,-4.688011074,-,-,-,-,-,-
S12000029,South Lanarkshire,Scotland,8015,1773.9281408291024,55.61280775877293,-3.810978919,-,-,-,-,-,-
S12000030,Stirling,Scotland,2912,2253.4702412734014,56.24439692392635,-4.341301711,-,-,-,-,-,-
S12000033,Aberdeen City,Scotland,11225,185.70767854844078,57.15715882576943,-2.186741717,-,-,-,-,-,-
S12000034,Aberdeenshire,Scotland,7961,6317.992746883513,57.24147088766722,-2.630913947,-,-,-,-,-,-
S12000035,Argyll and Bute,Scotland,2234,7007.014954124305,56.12331724143065,-5.495396352,-,-,-,-,-,-
S12000036,City of Edinburgh,Scotland,26037,263.33958352207947,55.92430382923986,-3.288450339,-,-,-,-,-,-
S12000038,Renfrewshire,Scotland,5285,261.45864187108435,55.84568687148399,-4.543441693,-,-,-,-,-,-
S12000039,West Dunbartonshire,Scotland,2191,177.27077595516536,55.98651700486176,-4.516696649,-,-,-,-,-,-
S12000040,West Lothian,Scotland,5532,428.82768897897756,55.88428266559745,-3.574425118,-,-,-,-,-,-
S12000041,Angus,Scotland,2502,2185.3204545643853,56.724873933026764,-2.920515415,-,-,-,-,-,-
S12000042,Dundee City,Scotland,4026,59.83294993859094,56.477977512527254,-2.970433497,-,-,-,-,-,-
S12000044,North Lanarkshire,Scotland,-,472.2676634557805,55.87482886563735,-3.948404134,-,-,-,-,-,-
S12000045,East Dunbartonshire,Scotland,1843,174.47358864960728,55.956033917284316,-4.22556129,-,-,-,-,-,-
S12000046,Glasgow City,Scotland,-,174.6957061732222,55.85784341160645,-4.252494783,-,-,-,-,-,-
W06000001,Isle of Anglesey,Wales,1361,714.4822858,53.287298146876246,-4.373923404,69097,12927,3984,17783,15454,18949
W06000002,Gwynedd,Wales,2905,2548.316419789677,52.893035587905736,-4.021466837,120813,21618,12028,33636,25304,28227
W06000003,Conwy,Wales,2318,1130.2752619231935,53.13799618637831,-3.734510891,114891,20348,6475,29671,25846,32551
W06000004,Denbighshire,Wales,2179,838.5260000626429,53.08987278734477,-3.353306339,98202,19403,6146,26777,21233,24643
W06000005,Flintshire,Wales,5233,437.49414129007954,53.20820969479896,-3.160184222,155867,30746,9828,46760,34081,34452
W06000006,Wrexham,Wales,3720,503.68436758244815,52.99026131913065,-3.01769801,138245,28008,9788,43297,28422,28730
W06000008,Ceredigion,Wales,1596,1789.0662239294927,52.25429594103577,-4.071675963,72599,11396,9374,17343,15327,19159
W06000009,Pembrokeshire,Wales,3005,1618.6339991940556,51.85579868,-4.885822464,125761,23329,7783,33019,27674,33956
W06000010,Carmarthenshire,Wales,3961,2371.149482422776,51.90504241469743,-4.157697729,190800,36437,12164,53103,41205,47891
W06000011,Swansea,Wales,6475,379.67894368605374,51.64348812869746,-4.051360696,251304,47839,27745,78728,46025,50967
W06000012,Neath Port Talbot,Wales,3041,442.3056096135436,51.681559005946085,-3.741530321,143249,27823,11767,43405,29018,31236
W06000013,Bridgend,Wales,3725,250.78381025299328,51.55695524864583,-3.598356341,147530,28785,9817,46234,30947,31747
W06000014,Vale of Glamorgan,Wales,2360,330.9189146752624,51.445729842889676,-3.399338714,135743,28172,8405,40779,27533,30854
W06000015,Cardiff,Wales,13000,140.4443897679635,51.510786535840516,-3.203979183,383919,75752,57620,135335,59278,55934
W06000016,Rhondda Cynon Taf,Wales,5021,424.1341717,51.65045058053648,-3.435688867,-,-,-,-,-,-
W06000018,Caerphilly,Wales,3574,277.3523145168297,51.65332943087683,-3.204968356,176865,35817,12342,55671,36381,36654
W06000019,Blaenau Gwent,Wales,1112,108.72554142339145,51.766745307349304,-3.193857501,67873,13446,4563,21203,14601,14060
W06000020,Torfaen,Wales,2007,126.22241354653966,51.69863840078626,-3.053469175,94119,19409,6407,29474,18901,19928
W06000021,Monmouthshire,Wales,2410,850.2712088903684,51.766101577704674,-2.872359402,94930,17083,5032,25750,21842,25223
W06000022,Newport,Wales,4578,190.50881029558062,51.57933497550686,-2.965883802,167899,38126,11745,59058,30722,28248
W06000023,Powys,Wales,2666,5195.363540846624,52.32560444993499,-3.40973584,135059,23306,7479,34328,30975,38971
W06000024,Merthyr Tydfil,Wales,1272,111.93028242957627,51.74096434160786,-3.361102023,58972,12551,4100,18872,11887,11562
AVG,AVG,AVG,5759.797721,556.4566137,52.50161501,-1.823985477,187172.5639,38949.34098,15924.07213,62179.00328,35442.40984,34677.7377
STD,STD,STD,7002.115684,695.7514664,1.242328823,1.33635068,124919.6949,28247.80009,16072.273,45645.33134,21120.79824,20288.87363
